[
	{
		"name": "Bishop's Orchards Winery",
		"address": "1355 Boston Post Rd, Guilford, CT 06437-2399",
		"phone": "203-453-2338",
		"url": "http://bishopsorchards.com/",
		"rating": "3.727000",
		"twitter": "http://twitter.com/#!/bishopswinery",
		"facebook": "http://www.facebook.com/bishopsorchardswinery",
		"gplace_url": "http://maps.google.com/maps/place?cid=8883870059034000823&q=Bishop's+Orchards+Winery+CT&ved=0CG0Q-gswAA&sa=X&ei=WwcDT6f6AvHa4QTfhbSwDw",
		"lat": "41.2896142",
		"lon": "-72.6951212"
	},
	{
		"name": "Cassidy Hill Vineyard",
		"address": "454 Cassidy Hill Rd, Coventry, CT 06238-1382",
		"phone": "860-498-1126",
		"url": "http://cassidyhillvineyard.com/",
		"rating": "0.000000",
		"twitter": "",
		"facebook": "",
		"gplace_url": "http://maps.google.com/maps/place?cid=6615812830689009546&q=Cassidy+Hill+Vineyard+CT&ved=0CGkQ-gswAA&sa=X&ei=WwcDT5ntAZO__QbmuL23Cg",
		"lat": "41.8320090",
		"lon": "-72.3269310"
	},
	{
		"name": "Chamard Vineyards",
		"address": "115 Cow Hill Rd, Clinton, CT 06413",
		"phone": "860-664-0299",
		"url": "http://chamard.com/",
		"rating": "0.000000",
		"twitter": "http://twitter.com/#!/chamardvineyard",
		"facebook": "https://www.facebook.com/pages/Chamard-Vineyard/214929284256",
		"gplace_url": "http://maps.google.com/maps/place?cid=10773919493949692729&q=Chamard+Vineyards+CT&ved=0CBMQ-gswAA&sa=X&ei=YAcDT8OkA4LT4QTv_pgO",
		"lat": "41.3022796",
		"lon": "-72.5433846"
	},
	{
		"name": "Connecticut Valley Winery",
		"address": "1480 Litchfield Tpke, New Hartford, CT 06057-3210",
		"phone": "860-489-9463",
		"url": "http://ctvalleywinery.com/",
		"rating": "0.000000",
		"twitter": "",
		"facebook": "",
		"gplace_url": "http://maps.google.com/maps/place?cid=17218461249412517360&q=Connecticut+Valley+Winery+CT&ved=0CBEQ-gswAA&sa=X&ei=WwcDT-jgBJOQ4gS53JEO",
		"lat": "41.8215820",
		"lon": "-73.0579320"
	},
	{
		"name": "DiGrazia Vineyards",
		"address": "131 Tower Road, Brookfield, CT 06804-3654",
		"phone": "203-775-1616",
		"url": "http://digrazia.com/",
		"rating": "0.000000",
		"twitter": "",
		"facebook": "",
		"gplace_url": "http://maps.google.com/maps/place?cid=18094132308777114666&q=DiGrazia+Vineyards+CT&ved=0CBEQ-gswAA&sa=X&ei=WwcDT_OrAtno_Abt2K3wCQ",
		"lat": "41.4693741",
		"lon": "-73.3696776"
	},
	{
		"name": "Gouveia Vineyards",
		"address": "1339 Whirlwind Hill Road, Wallingford Center, CT 06492-2727",
		"phone": "203-265-5526",
		"url": "http://gouveiavineyards.com/",
		"rating": "4.272000",
		"twitter": "",
		"facebook": "",
		"gplace_url": "http://maps.google.com/maps/place?cid=1812427622028422554&q=Gouveia+Vineyards+CT&ved=0CBQQ-gswAA&sa=X&ei=WwcDT_7tA4yQ4gSl7NQN",
		"lat": "41.4366660",
		"lon": "-72.7657690"
	},
	{
		"name": "Haight-Brown Vineyard",
		"address": "29 Chestnut Hill Rd, Litchfield, CT, CT 06759",
		"phone": "860-567-4045",
		"url": "http://haightvineyards.com/",
		"rating": "0.000000",
		"twitter": "",
		"facebook": "http://www.facebook.com/pages/Haight-Brown-Vineyard/139451539442168",
		"gplace_url": "http://maps.google.com/maps/place?cid=12177021188875457197&q=Haight-Brown+Vineyard+CT&ved=0CBQQ-gswAA&sa=X&ei=XAcDT4m8MMTE_Qbk6NSvDA",
		"lat": "41.7442252",
		"lon": "-73.1711826"
	},
	{
		"name": "Heritage Trail Vineyard",
		"address": "291 North Burnham Highway, Lisbon, CT 06351",
		"phone": "860-376-0659",
		"url": "http://heritagetrail.com/",
		"rating": "4.142000",
		"twitter": "",
		"facebook": "",
		"gplace_url": "http://maps.google.com/maps/place?cid=4800189291862429795&q=Heritage+Trail+Vineyard+CT&ved=0CBQQ-gswAA&sa=X&ei=XAcDT9yeNYu0_AaR1sifCA",
		"lat": "41.6321290",
		"lon": "-72.0060840"
	},
	{
		"name": "Holmberg Orchards",
		"address": "12 Orchard Ln, Gales Ferry, CT 06335",
		"phone": "860-464-7305",
		"url": "http://holmbergorchards.com/",
		"rating": "0.000000",
		"twitter": "",
		"facebook": "",
		"gplace_url": "http://maps.google.com/maps/place?cid=10672165376186550837&q=Holmberg+Orchards+CT&ved=0CGkQ-gswAA&sa=X&ei=XAcDT5_ONczltQalmfXxCA",
		"lat": "41.4684405",
		"lon": "-72.0572889"
	},
	{
		"name": "Hopkins Vineyard",
		"address": "25 Hopkins Road, New Preston, CT 06777",
		"phone": "860-868-7954",
		"url": "http://hopkinsvineyard.com/",
		"rating": "0.000000",
		"twitter": "http://www.twitter.com/HopkinsVineyard",
		"facebook": "http://www.facebook.com/HopkinsWine#!/pages/Litchfield-Hills-Winter-Wine-Trail/117583898346422",
		"gplace_url": "http://maps.google.com/maps/place?cid=7090396120612023986&q=Hopkins+Vineyard+CT&ved=0CBEQ-gswAA&sa=X&ei=XQcDT4_VJNbu_Ab0j5XLCg",
		"lat": "41.7052110",
		"lon": "-73.3534920"
	},
	{
		"name": "Jerram Winery",
		"address": "535 Town Hill Road, New Hartford, CT 06057-2517",
		"phone": "860-379-8749",
		"url": "http://jerramwinery.com/",
		"rating": "0.000000",
		"twitter": "",
		"facebook": "",
		"gplace_url": "http://maps.google.com/maps/place?cid=8864250803993436527&q=Jerram+Winery+CT&ved=0CBQQ-gswAA&sa=X&ei=XQcDT5HBJIad_Aa3ieCXBA",
		"lat": "41.8554939",
		"lon": "-73.0005781"
	},
	{
		"name": "Jonathan Edwards Winery",
		"address": "74 Chester Main Road, North Stonington, CT 06359",
		"phone": "860-535-0202",
		"url": "http://jedwardswinery.com/",
		"rating": "4.857000",
		"twitter": "",
		"facebook": "http://www.facebook.com/pages/Jonathan-Edwards-Winery/224926601815?ref=ts",
		"gplace_url": "http://maps.google.com/maps/place?cid=7401041407245074744&q=Jonathan+Edwards+Winery+CT&ved=0CBQQ-gswAA&sa=X&ei=XgcDT5SqIoGQ_AbOx8mbCg",
		"lat": "41.4650228",
		"lon": "-71.8741236"
	},
	{
		"name": "Jones Winery",
		"address": "606 Walnut Tree Hill Road, Shelton, CT 06484-2054",
		"phone": "203-929-8425",
		"url": "http://jonesfamilyfarms.com/",
		"rating": "0.000000",
		"twitter": "http://twitter.com/JonesFamilyFarm",
		"facebook": "http://www.facebook.com/pages/Shelton-CT/Jones-Family-Farms/42413034052",
		"gplace_url": "http://maps.google.com/maps/place?cid=15515355391202209870&q=Jones+Winery+CT&ved=0CBQQ-gswAA&sa=X&ei=XgcDT5jXMpLO4QTCnZ3-CA",
		"lat": "41.3329379",
		"lon": "-73.1728499"
	},
	{
		"name": "Land of Nod Vineyard and Winery",
		"address": "99 Lower Road, East Canaan, CT 06024-2624",
		"phone": "860-824-5225",
		"url": "",
		"rating": "0.000000",
		"twitter": "",
		"facebook": "",
		"gplace_url": "http://maps.google.com/maps/place?cid=11734102414018318335&q=Land+of+Nod+Vineyard+and+Winery+CT&ved=0CHMQ-gswAA&sa=X&ei=XgcDT-O1Osva4QT_24AQ",
		"lat": "42.0109239",
		"lon": "-73.3045749"
	},
	{
		"name": "Maugle Sierra Vineyards",
		"address": "825 Colonel Ledyard Highway, Ledyard, CT 06339",
		"phone": "860-464-8212",
		"url": "http://mauglesierravineyards.com/",
		"rating": "0.000000",
		"twitter": "",
		"facebook": "",
		"gplace_url": "http://maps.google.com/maps/place?cid=11819586158262850607&q=Maugle+Sierra+Vineyards+CT&ved=0CBQQ-gswAA&sa=X&ei=XwcDT6SoDYbe4QT6453FBQ",
		"lat": "41.4539984",
		"lon": "-72.0171762"
	},
	{
		"name": "McLaughlin Vineyards",
		"address": "14 Alberts Hill Road, Sandy Hook, CT 06482-1013",
		"phone": "203-426-1533",
		"url": "http://mclaughlinvineyards.com/",
		"rating": "0.000000",
		"twitter": "",
		"facebook": "",
		"gplace_url": "http://maps.google.com/maps/place?cid=2074435600620898529&q=McLaughlin+Vineyards+CT&ved=0CFkQ-gswAA&sa=X&ei=XwcDT4HVDoHN4QSs_qiVDw",
		"lat": "41.4467550",
		"lon": "-73.2876270"
	},
	{
		"name": "Miranda Winery",
		"address": "42 Ives Rd, Goshen, CT 06756",
		"phone": "860-491-9906",
		"url": "http://mirandavineyard.com/",
		"rating": "0.000000",
		"twitter": "http://twitter.com/#!/mirandavineyard",
		"facebook": "http://www.facebook.com/MirandaVineyard",
		"gplace_url": "http://maps.google.com/maps/place?cid=4296023087296354924&q=Miranda+Winery+CT&ved=0CBIQ-gswAA&sa=X&ei=YAcDT8ejFs_y_AbqkYW5Bg",
		"lat": "41.7985153",
		"lon": "-73.2348580"
	},
	{
		"name": "Priam Vineyards",
		"address": "11 Shailor Hill Rd, Colchester, CT 06415-2510",
		"phone": "860-267-8520",
		"url": "http://priamvineyards.com/",
		"rating": "0.000000",
		"twitter": "",
		"facebook": "",
		"gplace_url": "http://maps.google.com/maps/place?cid=4685608420808187193&q=Priam+Vineyards+CT&ved=0CHIQ-gswAA&sa=X&ei=YAcDT_rAHuHg4QSb3OnaCg",
		"lat": "41.5672939",
		"lon": "-72.4051790"
	},
	{
		"name": "Saltwater Farm Vineyard",
		"address": "349 Elm Street, Stonington, CT 06378",
		"phone": "860-415-9072",
		"url": "http://saltwaterfarmvineyard.com/",
		"rating": "0.000000",
		"twitter": "",
		"facebook": "",
		"gplace_url": "http://maps.google.com/maps/place?cid=3228828490674062877&q=Saltwater+Farm+Vineyard+CT&ved=0CBQQ-gswAA&sa=X&ei=YQcDT8juIfLb4QSyu5W6Dw",
		"lat": "41.3511820",
		"lon": "-71.8912414"
	},
	{
		"name": "Savino Vineyards",
		"address": "74 Chester Main Road, North Stonington, CT 06359",
		"phone": "860-535-0202",
		"url": "http://jedwardswinery.com/",
		"rating": "4.857000",
		"twitter": "",
		"facebook": "http://www.facebook.com/pages/Jonathan-Edwards-Winery/224926601815?ref=ts",
		"gplace_url": "http://maps.google.com/maps/place?cid=7401041407245074744&q=Savino+Vineyards+CT&ved=0CGsQ-gswAA&sa=X&ei=YQcDT-nhKsir_AbrkKyWCA",
		"lat": "41.4650228",
		"lon": "-71.8741236"
	},
	{
		"name": "Sharpe Hill Vineyard",
		"address": "108 Wade Road, Pomfret, CT 06258",
		"phone": "860-974-3549",
		"url": "http://sharpehill.com/",
		"rating": "0.000000",
		"twitter": "",
		"facebook": "",
		"gplace_url": "http://maps.google.com/maps/place?cid=14482809995730203047&q=Sharpe+Hill+Vineyard+CT&ved=0CBQQ-gswAA&sa=X&ei=YQcDT4XbOarO4QT5mPncCw",
		"lat": "41.8138370",
		"lon": "-72.0103290"
	},
	{
		"name": "Sunset Meadow Vineyards",
		"address": "599 Old Middle Street, Route 63, Goshen, CT 06756",
		"phone": "860-201-4654",
		"url": "http://sunsetmeadowvineyards.com/",
		"rating": "0.000000",
		"twitter": "",
		"facebook": "http://www.facebook.com/pages/Goshen-CT/Sunset-Meadow-Vineyards/93862514131?v=wall#!/pages/Goshen-CT/Sunset-Meadow-Vineyards/93862514131?v=app_4949752878",
		"gplace_url": "http://maps.google.com/maps/place?cid=3445207507483056166&q=Sunset+Meadow+Vineyards+CT&ved=0CBQQ-gswAA&sa=X&ei=YwcDT4n3Aujd4AThvOWcDw",
		"lat": "41.8317369",
		"lon": "-73.2254036"
	},
	{
		"name": "Taylor Brooke Winery",
		"address": "848 Connecticut 171, Woodstock, CT 06281",
		"phone": "860-974-1263",
		"url": "http://taylorbrookewinery.com/",
		"rating": "0.000000",
		"twitter": "",
		"facebook": "http://www.facebook.com/pages/Taylor-Brooke-Winery/114575139125",
		"gplace_url": "http://maps.google.com/maps/place?cid=5074792599683002730&q=Taylor+Brooke+Winery+CT&ved=0CBQQ-gswAA&sa=X&ei=YwcDT-3GC5fn_AaA3KGBCA",
		"lat": "41.9474753",
		"lon": "-72.0091357"
	},
	{
		"name": "White Silo Farm and Winery",
		"address": "32 Connecticut 37, Sherman, CT 06784",
		"phone": "860-355-0271",
		"url": "http://whitesilowinery.com/",
		"rating": "0.000000",
		"twitter": "",
		"facebook": "",
		"gplace_url": "http://maps.google.com/maps/place?cid=10799638347476647315&q=White+Silo+Farm+and+Winery+CT&ved=0CBAQ-gswAA&sa=X&ei=YwcDT-q-EMjU4QSly73WDg",
		"lat": "41.5764414",
		"lon": "-73.4985796"
	}
]
