[
	{
		"name": "Bar Harbor Cellars",
		"address": "854 State Highway 3, Bar Harbor, ME 04609-7238",
		"phone": "207-288-3907",
		"url": "http://barharborcellars.com/",
		"rating": "0.000000",
		"twitter": "",
		"facebook": "",
		"gplace_url": "http://maps.google.com/maps/place?cid=18423171807546299809&q=Bar+Harbor+Cellars+ME&ved=0CBEQ-gswAA&sa=X&ei=fgYDT52MBpGS_Abe_8GXCg",
		"lat": "44.4196908",
		"lon": "-68.3361486"
	},
	{
		"name": "Blacksmiths Winery",
		"address": "967 Quaker Ridge Road, Casco, ME 04015",
		"phone": "207-655-3292",
		"url": "http://blacksmithswinery.com/",
		"rating": "0.000000",
		"twitter": "",
		"facebook": "",
		"gplace_url": "http://maps.google.com/maps/place?cid=15199017245721567593&q=Blacksmiths+Winery+ME&ved=0CBQQ-gswAA&sa=X&ei=fgYDT7ulAoad_Aa3ieCXBA",
		"lat": "43.9144740",
		"lon": "-70.5186070"
	},
	{
		"name": "Cellardoor Winery at the Villa ",
		"address": "47 West Street, Rockport, ME 04856-5707",
		"phone": "207-236-2654",
		"url": "http://mainewine.com/",
		"rating": "0.000000",
		"twitter": "",
		"facebook": "",
		"gplace_url": "http://maps.google.com/maps/place?cid=16248173666192435163&q=Cellardoor+Winery+at+the+Villa++ME&ved=0CBsQ-gswAA&sa=X&ei=fgYDT4HbAcir_AbrkKyWCA",
		"lat": "44.1859659",
		"lon": "-69.0826101"
	},
	{
		"name": "DayBreak Vineyard",
		"address": "51 Washington Ave, Portland, ME 04101-2562",
		"phone": "207-773-6323",
		"url": "http://mainemeadworks.com/",
		"rating": "0.000000",
		"twitter": "",
		"facebook": "",
		"gplace_url": "http://maps.google.com/maps/place?cid=16085061546040862525&q=DayBreak+Vineyard+ME&ved=0CBEQ-gswAA&sa=X&ei=fgYDT-D4AcSJ_Aav-LSqDw",
		"lat": "43.6650643",
		"lon": "-70.2519500"
	},
	{
		"name": "Maine Mead Works",
		"address": "51 Washington Avenue, Portland, ME 04101-2562",
		"phone": "",
		"url": "http://mainemeadworks.com/",
		"rating": "0.000000",
		"twitter": "",
		"facebook": "",
		"gplace_url": "http://maps.google.com/maps/place?cid=6145530542579508873&q=Maine+Mead+Works+ME&ved=0CBcQ-gswAA&sa=X&ei=fwYDT5GTNYu0_AaR1sifCA",
		"lat": "43.6650643",
		"lon": "-70.2519500"
	},
	{
		"name": "Oyster River Winegrowers",
		"address": "Oyster River Rd, Thomaston, ME 04864",
		"phone": "207-354-7177(207) 273-2998",
		"url": "http://oysterriverwinegrowers.com/",
		"rating": "0.000000",
		"twitter": "",
		"facebook": "",
		"gplace_url": "http://maps.google.com/maps/place?cid=5754201811702903070&q=Oyster+River+Winegrowers+ME&ved=0CBwQ-gswAA&sa=X&ei=fwYDT_q4NcTl_Aav7JD9DA",
		"lat": "44.0945329",
		"lon": "-69.2172956"
	},
	{
		"name": "Prospect Hill Winery",
		"address": "51 Washington Ave, Portland, ME 04101-2562",
		"phone": "207-773-6323",
		"url": "http://mainemeadworks.com/",
		"rating": "0.000000",
		"twitter": "",
		"facebook": "",
		"gplace_url": "http://maps.google.com/maps/place?cid=16085061546040862525&q=Prospect+Hill+Winery+ME&ved=0CBIQ-gswAA&sa=X&ei=fwYDT53RNpO__QbmuL23Cg",
		"lat": "43.6650643",
		"lon": "-70.2519500"
	},
	{
		"name": "Royal River Winery",
		"address": "51 Washington Ave, Portland, ME 04101-2562",
		"phone": "207-773-6323",
		"url": "http://mainemeadworks.com/",
		"rating": "0.000000",
		"twitter": "",
		"facebook": "",
		"gplace_url": "http://maps.google.com/maps/place?cid=16085061546040862525&q=Royal+River+Winery+ME&ved=0CCYQ-gswAA&sa=X&ei=fwYDT521OKrf4QTfqeSJDQ",
		"lat": "43.6650643",
		"lon": "-70.2519500"
	},
	{
		"name": "Salmon Falls Winery",
		"address": "22 Academy St, South Berwick, ME 03908",
		"phone": "207-384-5629",
		"url": "http://salmonfallswinery.com/",
		"rating": "0.000000",
		"twitter": "",
		"facebook": "",
		"gplace_url": "http://maps.google.com/maps/place?cid=10364763893628512459&q=Salmon+Falls+Winery+ME&ved=0CBIQ-gswAA&sa=X&ei=fwYDT_OKPIak4AS01NzCBw",
		"lat": "43.2316925",
		"lon": "-70.8073749"
	},
	{
		"name": "Savage Oakes Vineyard and Winery",
		"address": "174 Barrett Hill Rd., Union, ME 04862",
		"phone": "207-785-2828",
		"url": "http://savageoakes.com/",
		"rating": "0.000000",
		"twitter": "http://www.twitter.com/SavageOakes",
		"facebook": "http://www.facebook.com/pages/Union-ME/Savage-Oakes-Vineyard-and-Winery/87780724420",
		"gplace_url": "http://maps.google.com/maps/place?cid=1279240365463045276&q=Savage+Oakes+Vineyard+and+Winery+ME&ved=0CBQQ-gswAA&sa=X&ei=gAYDT6RE49ThBLHPtIsP",
		"lat": "44.2176160",
		"lon": "-69.2619320"
	},
	{
		"name": "Shalom Orchard Organic Farm and Winery",
		"address": "158 Eastbrook Road, Franklin, ME 04634",
		"phone": "207-565-2312",
		"url": "http://shalomorchard.com/",
		"rating": "0.000000",
		"twitter": "",
		"facebook": "",
		"gplace_url": "http://maps.google.com/maps/place?cid=4289058656287981654&q=Shalom+Orchard+Organic+Farm+and+Winery+ME&ved=0CBIQ-gswAA&sa=X&ei=gAYDT--gONyu_AaCkuSYBA",
		"lat": "44.6075704",
		"lon": "-68.2685139"
	},
	{
		"name": "Sow's Ear Winery",
		"address": "303 Coastal Road, Brooksville, ME 04617-3705",
		"phone": "207-326-4649",
		"url": "",
		"rating": "0.000000",
		"twitter": "",
		"facebook": "",
		"gplace_url": "http://maps.google.com/maps/place?cid=8204952391147189373&q=Sow's+Ear+Winery+ME&ved=0CBEQ-gswAA&sa=X&ei=gQYDT9GjOIKO_AbB25T8CQ",
		"lat": "44.3453850",
		"lon": "-68.7015380"
	},
	{
		"name": "Sweetgrass Farm Winery and Distillery",
		"address": "325 Carroll Road, Union, ME 04862-5833",
		"phone": "207-785-3024",
		"url": "http://sweetgrasswinery.com/",
		"rating": "0.000000",
		"twitter": "",
		"facebook": "http://www.facebook.com/l.php?u=http%3A%2F%2Fwww.youtube.com%2Fwatch%3Fv%3DaiskoRiuCjc&h=bb9aa",
		"gplace_url": "http://maps.google.com/maps/place?cid=4566590582508296597&q=Sweetgrass+Farm+Winery+and+Distillery+ME&ved=0CBQQ-gswAA&sa=X&ei=gQYDT_XuOJfe_AbQrdHoBA",
		"lat": "44.2530953",
		"lon": "-69.3271927"
	},
	{
		"name": "Vintner's Cellar Winery of Portland",
		"address": "51 Washington Ave, Portland, ME 04101-2562",
		"phone": "207-773-6323",
		"url": "http://mainemeadworks.com/",
		"rating": "0.000000",
		"twitter": "",
		"facebook": "",
		"gplace_url": "http://maps.google.com/maps/place?cid=16085061546040862525&q=Vintner's+Cellar+Winery+of+Portland+ME&ved=0CBEQ-gswAA&sa=X&ei=gAYDT-uyNIyf_QapibDUCA",
		"lat": "43.6650643",
		"lon": "-70.2519500"
	},
	{
		"name": "Winterport Winery",
		"address": "279 South Main Street, Winterport, ME 04496-3000",
		"phone": "207-223-4500",
		"url": "http://winterportwinery.com/",
		"rating": "0.000000",
		"twitter": "",
		"facebook": "http://www.facebook.com/pages/Winterport-ME/Winterport-Winery/107454236064",
		"gplace_url": "http://maps.google.com/maps/place?cid=1222597021607375721&q=Winterport+Winery+ME&ved=0CBMQ-gswAA&sa=X&ei=gQYDT4bbEuHN4QS0m8DCDg",
		"lat": "44.6348127",
		"lon": "-68.8472093"
	}
]
