[
	{
		"name": "Alfalfa Farm Winery",
		"address": "267 Rowley Bridge Road, Topsfield, MA 01983-2414",
		"phone": "978-774-0014",
		"url": "http://alfalfafarmwinery.com/",
		"rating": "0.000000",
		"twitter": "",
		"facebook": "",
		"gplace_url": "http://maps.google.com/maps/place?cid=14594238234764025661&q=Alfalfa+Farm+Winery+MA&ved=0CEsQ-gswAA&sa=X&ei=AAYDT8ymH8H2sgaLpKCLCw",
		"lat": "42.6023721",
		"lon": "-70.9643556"
	},
	{
		"name": "Boston Winery",
		"address": "26 Ericsson St, Boston, MA 02122-3602",
		"phone": "617-265-9463",
		"url": "http://bostonwinery.net/",
		"rating": "0.000000",
		"twitter": "",
		"facebook": "http://www.facebook.com/business/dashboard/",
		"gplace_url": "http://maps.google.com/maps/place?cid=16509254267580146871&q=Boston+Winery+MA&ved=0CBMQ-gswAA&sa=X&ei=AAYDT8mXIoad_Aa3ieCXBA",
		"lat": "42.2916208",
		"lon": "-71.0397439"
	},
	{
		"name": "Cape Cod Winery",
		"address": "11 Shore Road, North Truro, MA 02652",
		"phone": "508-487-6200",
		"url": "http://trurovineyardsofcapecod.com/",
		"rating": "0.000000",
		"twitter": "http://twitter.com/trurovineyards",
		"facebook": "http://www.facebook.com/home.php?#/pages/Truro-Vineyards-of-Cape-Cod/41784465142",
		"gplace_url": "http://maps.google.com/maps/place?cid=7850646678889306631&q=Cape+Cod+Winery+MA&ved=0CB4Q-gswAA&sa=X&ei=AAYDT_qoIoTR4QSmvOEN",
		"lat": "42.0302549",
		"lon": "-70.0783490"
	},
	{
		"name": "Chester Hill Winery",
		"address": "47 Lyon Hill Road, Chester, MA 01011",
		"phone": "413-354-2340",
		"url": "",
		"rating": "0.000000",
		"twitter": "",
		"facebook": "",
		"gplace_url": "http://maps.google.com/maps/place?cid=6433988787630582100&q=Chester+Hill+Winery+MA&ved=0CA8Q-gswAA&sa=X&ei=AAYDT9PzH4qu_AaK87GICg",
		"lat": "42.3094205",
		"lon": "-72.9378396"
	},
	{
		"name": "Chicama Vineyards",
		"address": "Stoney Hill Lane, Vineyard Haven, MA 02568",
		"phone": "508-693-0309",
		"url": "",
		"rating": "0.000000",
		"twitter": "",
		"facebook": "",
		"gplace_url": "http://maps.google.com/maps/place?cid=13727569835403202314&q=Chicama+Vineyards+MA&ved=0CA4Q-gswAA&sa=X&ei=AAYDT6iwIJPU_Abcrc2iCg",
		"lat": "41.4213280",
		"lon": "-70.6356120"
	},
	{
		"name": "Coastal Vineyards",
		"address": "417 Hixbridge Rd # C, Westport, MA 02790-1316",
		"phone": "508-636-3423",
		"url": "http://westportrivers.com/",
		"rating": "0.000000",
		"twitter": "",
		"facebook": "https://www.facebook.com/pages/Westport-Rivers-Vineyard-Winery/58608140562",
		"gplace_url": "http://maps.google.com/maps/place?cid=1712628388945244548&q=Coastal+Vineyards+MA&ved=0CD4Q-gswAA&sa=X&ei=AQYDT4eVLY6T_QaLpZicDg",
		"lat": "",
		"lon": ""
	},
	{
		"name": "Echo Hill Orchards and Winery",
		"address": "101 Wilbraham Road, Monson, MA 01057-9659",
		"phone": "413-267-3303",
		"url": "http://echohillorchards.com/",
		"rating": "0.000000",
		"twitter": "",
		"facebook": "",
		"gplace_url": "http://maps.google.com/maps/place?cid=13569811570677145532&q=Echo+Hill+Orchards+and+Winery+MA&ved=0CBEQ-gswAA&sa=X&ei=AQYDT_CbONDr_AbZz42cBA",
		"lat": "42.1091110",
		"lon": "-72.3469920"
	},
	{
		"name": "Furnace Brook Winery",
		"address": "508 Canaan Road, Richmond, MA 01254-5116",
		"phone": "413-698-3301",
		"url": "http://furnacebrookwinery.com/",
		"rating": "0.000000",
		"twitter": "",
		"facebook": "https://www.facebook.com/pages/Hilltop-Orchards-home-of-Furnace-Brook-Winery-Berkshires-MA/207922412569752",
		"gplace_url": "http://maps.google.com/maps/place?cid=2040349558319755169&q=Furnace+Brook+Winery+MA&ved=0CF4Q-gswAA&sa=X&ei=AgYDT84z2ej8Bu3YrfAJ",
		"lat": "",
		"lon": ""
	},
	{
		"name": "Hardwick Vineyard and Winery",
		"address": "3305 Greenwich Road, Hardwick, MA 01082-9322",
		"phone": "413-967-7763",
		"url": "http://hardwickwinery.com/",
		"rating": "0.000000",
		"twitter": "",
		"facebook": "http://www.facebook.com/profile.php?id=1668973723",
		"gplace_url": "http://maps.google.com/maps/place?cid=5049934702767807371&q=Hardwick+Vineyard+and+Winery+MA&ved=0CCMQ-gswAA&sa=X&ei=AgYDT6lAjJz8BqX45LYC",
		"lat": "42.3250302",
		"lon": "-72.2488352"
	},
	{
		"name": "Les Trois Emme Winery and Vineyard",
		"address": "8 Knight Road, New Marlborough, MA 01230-1495",
		"phone": "413-528-1015",
		"url": "http://ltewinery.com/",
		"rating": "0.000000",
		"twitter": "",
		"facebook": "",
		"gplace_url": "http://maps.google.com/maps/place?cid=1201884069466484873&q=Les+Trois+Emme+Winery+and+Vineyard+MA&ved=0CBAQ-gswAA&sa=X&ei=AgYDT7jWAZLO4QTCnZ3-CA",
		"lat": "42.1529212",
		"lon": "-73.2779092"
	},
	{
		"name": "Nantucket Vineyard",
		"address": "5 Bartlett Farm Road, Nantucket, MA 02554-4341",
		"phone": "508-325-5929",
		"url": "http://ciscobrewers.com/",
		"rating": "0.000000",
		"twitter": "",
		"facebook": "",
		"gplace_url": "http://maps.google.com/maps/place?cid=14246911429211032392&q=Nantucket+Vineyard+MA&ved=0CGYQ-gswAA&sa=X&ei=AgYDT99NmO_8Btr42OwJ",
		"lat": "41.2636090",
		"lon": "-70.1314380"
	},
	{
		"name": "Nashoba Valley Winery",
		"address": "100 Wattaquadock Hill Road, Bolton, MA 01740-1238",
		"phone": "978-779-5521",
		"url": "http://nashobawinery.com/",
		"rating": "4.400000",
		"twitter": "http://twitter.com/NashobaWinery",
		"facebook": "http://www.facebook.com/home.php?#!/profile.php?id=100000757002311",
		"gplace_url": "http://maps.google.com/maps/place?cid=10842396939720928579&q=Nashoba+Valley+Winery+MA&ved=0CBQQ-gswAA&sa=X&ei=AgYDT4DHMZOQ4gS53JEO",
		"lat": "42.4318210",
		"lon": "-71.6132769"
	},
	{
		"name": "Neponset Winery",
		"address": "104 Bolton Rd, Harvard, MA 01451",
		"phone": "978-415-9463",
		"url": "http://stillriverwinery.com/",
		"rating": "4.857000",
		"twitter": "http://twitter.com/#!/appleicewine",
		"facebook": "http://www.facebook.com/StillRiverWinery",
		"gplace_url": "http://maps.google.com/maps/place?cid=4992828380749316820&q=Neponset+Winery+MA&ved=0CGYQ-gswAA&sa=X&ei=BQYDT6rvLsPT_AbCw6WQCg",
		"lat": "42.4818820",
		"lon": "-71.5840750"
	},
	{
		"name": "Obadiah McIntrye Farm & Charlton Orchards",
		"address": "44 Old Worcester Road, Charlton, MA 01507-1371",
		"phone": "508-248-7941",
		"url": "",
		"rating": "0.000000",
		"twitter": "",
		"facebook": "",
		"gplace_url": "http://maps.google.com/maps/place?cid=6510570708050788353&q=Obadiah+McIntrye+Farm+&ved=0CBAQ-gswAA&sa=X&ei=AgYDT8-tEI6T_QaLpZicDg",
		"lat": "42.1464022",
		"lon": "-71.9388910"
	},
	{
		"name": "Pioneer Valley Vineyard",
		"address": "134 Acapesket Road, East Falmouth, MA 02536",
		"phone": "508-548-4747(800) 548-5556",
		"url": "http://gogreenharbor.com/",
		"rating": "0.000000",
		"twitter": "",
		"facebook": "",
		"gplace_url": "http://maps.google.com/maps/place?cid=11101912769626421159&q=Pioneer+Valley+Vineyard+MA&ved=0CGsQ-gswAA&sa=X&ei=BAYDT979HYyY_QawlY3ECQ",
		"lat": "41.5714548",
		"lon": "-70.5669250"
	},
	{
		"name": "Plymouth Bay Winery",
		"address": "114 Water Street, Plymouth, MA 02360-3864",
		"phone": "508-746-2100",
		"url": "http://plymouthbaywinery.com/",
		"rating": "0.000000",
		"twitter": "",
		"facebook": "",
		"gplace_url": "http://maps.google.com/maps/place?cid=4465183273303700250&q=Plymouth+Bay+Winery+MA&ved=0CBwQ-gswAA&sa=X&ei=CgYDT5sukbr8Bufj6bEM",
		"lat": "41.9599437",
		"lon": "-70.6654807"
	},
	{
		"name": "Plymouth Colony Winery",
		"address": "56 Pinewood Road, Plymouth, MA 02360-5025",
		"phone": "508-747-3334",
		"url": "",
		"rating": "0.000000",
		"twitter": "",
		"facebook": "",
		"gplace_url": "http://maps.google.com/maps/place?cid=14658296986211942401&q=Plymouth+Colony+Winery+MA&ved=0CA0Q-gswAA&sa=X&ei=AgYDT63lGtDr_AbZz42cBA",
		"lat": "41.9272381",
		"lon": "-70.7330375"
	},
	{
		"name": "Plymouth Winery",
		"address": "170 Water St, Plymouth, MA 02360",
		"phone": "508-746-3532",
		"url": "http://plymouthwinery.com/",
		"rating": "0.000000",
		"twitter": "",
		"facebook": "",
		"gplace_url": "http://maps.google.com/maps/place?cid=18281519637972057073&q=Plymouth+Winery+MA&ved=0CGcQ-gswAA&sa=X&ei=AgYDT-CqJpG6_Abn4-mxDA",
		"lat": "",
		"lon": ""
	},
	{
		"name": "Red Oak Winery",
		"address": "325 North Main Street, Middleton, MA 01949-1685",
		"phone": "",
		"url": "",
		"rating": "0.000000",
		"twitter": "",
		"facebook": "",
		"gplace_url": "http://maps.google.com/maps/place?cid=13731853168101458205&q=Red+Oak+Winery+MA&ved=0CGIQ-gswAA&sa=X&ei=BQYDT8GaAq7Y4QT0vrEO",
		"lat": "42.6215280",
		"lon": "-71.0527360"
	},
	{
		"name": "Running Brook Vineyard and Winery",
		"address": "335 Old Fall River Road, N. Dartmouth, MA 02747",
		"phone": "508-985-1998",
		"url": "http://runningbrookwine.com/",
		"rating": "0.000000",
		"twitter": "",
		"facebook": "",
		"gplace_url": "http://maps.google.com/maps/place?cid=12923701925954118198&q=Running+Brook+Vineyard+and+Winery+MA&ved=0CBMQ-gswAA&sa=X&ei=BAYDT7eCD4fptQbY3KX8BQ",
		"lat": "41.6788382",
		"lon": "-71.0007134"
	},
	{
		"name": "Russell Orchards and Winery",
		"address": "143 Argilla Road, Ipswich, MA 01938-2644",
		"phone": "978-356-5366",
		"url": "http://russellorchards.com/",
		"rating": "4.125000",
		"twitter": "",
		"facebook": "http://www.facebook.com/home.php?#!/pages/Ipswich-MA/Russell-Orchards/113504828675124?ref=ts",
		"gplace_url": "http://maps.google.com/maps/place?cid=11665460520789308482&q=Russell+Orchards+and+Winery+MA&ved=0CBQQ-gswAA&sa=X&ei=BAYDT-jaBsOj4gTWrOyvBA",
		"lat": "42.6616760",
		"lon": "-70.8030660"
	},
	{
		"name": "Still River Winery",
		"address": "104 Bolton Rd, Harvard, MA 01451",
		"phone": "978-415-9463",
		"url": "http://stillriverwinery.com/",
		"rating": "4.857000",
		"twitter": "http://twitter.com/#!/appleicewine",
		"facebook": "http://www.facebook.com/StillRiverWinery",
		"gplace_url": "http://maps.google.com/maps/place?cid=4992828380749316820&q=Still+River+Winery+MA&ved=0CBQQ-gswAA&sa=X&ei=BQYDT4LLBuTb4ASl4snZDA",
		"lat": "42.4818820",
		"lon": "-71.5840750"
	},
	{
		"name": "Travessia Winery",
		"address": "760 Purchase Street, New Bedford, MA 02740",
		"phone": "774-929-6534",
		"url": "http://travessiawine.com/",
		"rating": "0.000000",
		"twitter": "",
		"facebook": "",
		"gplace_url": "http://maps.google.com/maps/place?cid=3985630850524416845&q=Travessia+Winery+MA&ved=0CBQQ-gswAA&sa=X&ei=AwYDT6G8MuGh4gTZk4QO",
		"lat": "",
		"lon": ""
	},
	{
		"name": "Truro Vineyards of Cape Cod",
		"address": "11 Shore Road, North Truro, MA 02652",
		"phone": "508-487-6200",
		"url": "http://trurovineyardsofcapecod.com/",
		"rating": "0.000000",
		"twitter": "http://twitter.com/trurovineyards",
		"facebook": "http://www.facebook.com/home.php?#/pages/Truro-Vineyards-of-Cape-Cod/41784465142",
		"gplace_url": "http://maps.google.com/maps/place?cid=7850646678889306631&q=Truro+Vineyards+of+Cape+Cod+MA&ved=0CBQQ-gswAA&sa=X&ei=AgYDT7e0LdXJ_Qba1umqDw",
		"lat": "",
		"lon": ""
	},
	{
		"name": "Turtle Creek Winery",
		"address": "104 Bolton Rd, Harvard, MA 01451",
		"phone": "978-415-9463",
		"url": "http://stillriverwinery.com/",
		"rating": "4.857000",
		"twitter": "http://twitter.com/#!/appleicewine",
		"facebook": "http://www.facebook.com/StillRiverWinery",
		"gplace_url": "http://maps.google.com/maps/place?cid=4992828380749316820&q=Turtle+Creek+Winery+MA&ved=0CGoQ-gswAA&sa=X&ei=BAYDT8uqOY6P4gSviaEO",
		"lat": "42.4818820",
		"lon": "-71.5840750"
	},
	{
		"name": "West County Cider Winery",
		"address": "333 Russell Street, Hadley, MA 01035-3535",
		"phone": "413-584-8174",
		"url": "http://fourseasonswine.com/",
		"rating": "0.000000",
		"twitter": "",
		"facebook": "",
		"gplace_url": "http://maps.google.com/maps/place?cid=15999285913534812589&q=West+County+Cider+Winery+MA&ved=0CHMQ-gswAA&sa=X&ei=BAYDT_TfDZS3_QaS5-VY",
		"lat": "42.3561829",
		"lon": "-72.5540493"
	},
	{
		"name": "Westport Rivers Vineyard and Winery",
		"address": "417 Hixbridge Rd # C, Westport, MA 02790-1316",
		"phone": "508-636-3423",
		"url": "http://westportrivers.com/",
		"rating": "0.000000",
		"twitter": "",
		"facebook": "https://www.facebook.com/pages/Westport-Rivers-Vineyard-Winery/58608140562",
		"gplace_url": "http://maps.google.com/maps/place?cid=1712628388945244548&q=Westport+Rivers+Vineyard+and+Winery+MA&ved=0CGoQ-gswAA&sa=X&ei=AwYDT-eWE8PA_Ab7oeSdCQ",
		"lat": "",
		"lon": ""
	},
	{
		"name": "Willow Spring Vineyards",
		"address": "11 Shore Road, North Truro, MA 02652",
		"phone": "508-487-6200",
		"url": "http://trurovineyardsofcapecod.com/",
		"rating": "0.000000",
		"twitter": "http://twitter.com/trurovineyards",
		"facebook": "http://www.facebook.com/home.php?#/pages/Truro-Vineyards-of-Cape-Cod/41784465142",
		"gplace_url": "http://maps.google.com/maps/place?cid=7850646678889306631&q=Willow+Spring+Vineyards+MA&ved=0CGIQ-gswAA&sa=X&ei=BAYDT-nnKomh4gStidWHCg",
		"lat": "42.0302549",
		"lon": "-70.0783490"
	},
	{
		"name": "Zoll Cellars",
		"address": "110 Old Mill Rd, Shrewsbury, MA 01545",
		"phone": "857-498-1665",
		"url": "http://zollwine.com/",
		"rating": "0.000000",
		"twitter": "",
		"facebook": "",
		"gplace_url": "http://maps.google.com/maps/place?cid=1655107773078573740&q=Zoll+Cellars+MA&ved=0CGAQ-gswAA&sa=X&ei=AwYDT7LJOMW6_Aas0ZnvCQ",
		"lat": "42.2840540",
		"lon": "-71.7434750"
	}
]
