[
	{
		"name": "Candia Vineyards",
		"address": "702 High St, Candia, NH 03034-2040",
		"phone": "603-867-9751",
		"url": "http://candiavineyards.com/",
		"rating": "0.000000",
		"twitter": "",
		"facebook": "http://www.facebook.com/pages/Candia-Vineyards/133805012628",
		"gplace_url": "http://maps.google.com/maps/place?cid=15015022900754654045&q=Candia+Vineyards+NH&ved=0CBIQ-gswAA&sa=X&ei=xgUDT6qmGoqu_AaK87GICg",
		"lat": "43.0711776",
		"lon": "-71.3493652"
	},
	{
		"name": "Coffin Cellars",
		"address": "114 Barnett Hill Road, Walpole, NH 03608",
		"phone": "603-756-3948",
		"url": "http://bhvineyard.com/",
		"rating": "4.428000",
		"twitter": "",
		"facebook": "http://www.facebook.com/pages/Walpole-Mountain-View-Winery-at-Barnett-Hill-Vineyard/142855282405964",
		"gplace_url": "http://maps.google.com/maps/place?cid=11498525856776523640&q=Coffin+Cellars+NH&ved=0CG4Q-gswAA&sa=X&ei=xgUDT9CIHMbI_Aafvc3RDA",
		"lat": "43.0712853",
		"lon": "-72.3702233"
	},
	{
		"name": "Farnum Hill Ciders",
		"address": "98 Poverty Ln, Lebanon, NH 03766-2700",
		"phone": "603-448-1511",
		"url": "http://povertylaneorchards.com/",
		"rating": "0.000000",
		"twitter": "http://twitter.com/home?status=Home%20-%20http%3A%2F%2Fwww.povertylaneorchards.com%2F",
		"facebook": "http://www.facebook.com/share.php?u=http%3A%2F%2Fwww.povertylaneorchards.com%2F&t=Home",
		"gplace_url": "http://maps.google.com/maps/place?cid=13475829841166620594&q=Farnum+Hill+Ciders+NH&ved=0CBQQ-gswAA&sa=X&ei=xgUDT8-BG4Xk_Aa5naCpCQ",
		"lat": "43.6027624",
		"lon": "-72.2890089"
	},
	{
		"name": "Flag Hill Winery",
		"address": "297 N River Rd, Lee, NH 03861",
		"phone": "603-659-2949",
		"url": "http://flaghill.com/",
		"rating": "0.000000",
		"twitter": "http://www.twitter.com/flaghillwinery",
		"facebook": "http://www.facebook.com/flaghill",
		"gplace_url": "http://maps.google.com/maps/place?cid=8965356342052657368&q=Flag+Hill+Winery+NH&ved=0CBQQ-gswAA&sa=X&ei=xgUDT-ipHIXT4QSYzKDSDg",
		"lat": "43.0829315",
		"lon": "-71.0282797"
	},
	{
		"name": "Fulchino Vineyard",
		"address": "187 Pine Hill Road, Hollis, NH 03049",
		"phone": "603-886-0479",
		"url": "http://fulchinovineyard.com/",
		"rating": "0.000000",
		"twitter": "",
		"facebook": "http://www.facebook.com/pages/Fulchino-Vineyard/370345374369",
		"gplace_url": "http://maps.google.com/maps/place?cid=10892256491073794047&q=Fulchino+Vineyard+NH&ved=0CBAQ-gswAA&sa=X&ei=xwUDT_eyOtXJ_Qba1umqDw",
		"lat": "42.7550854",
		"lon": "-71.5484733"
	},
	{
		"name": "Haunting Whisper Vineyards",
		"address": "77 Oak Ridge Road, Route 4, Danbury, NH 03230",
		"phone": "603-768-5506(603) 768-3768(603) 769-7590",
		"url": "http://hauntingwhisper.com/",
		"rating": "0.000000",
		"twitter": "",
		"facebook": "http://www.facebook.com/pages/Danbury-NH/Haunting-Whisper-Vineyards/115481828486298?v=info&ref=ts#!/pages/Danbury-NH/Haunting-Whisper-Vineyards/115481828486298?v=wall&ref=ts",
		"gplace_url": "http://maps.google.com/maps/place?cid=13075324268184793033&q=Haunting+Whisper+Vineyards+NH&ved=0CC8Q-gswAA&sa=X&ei=xwUDT6HlO5fG_Abuv-jPDg",
		"lat": "43.5266800",
		"lon": "-71.8656310"
	},
	{
		"name": "Hermit Woods",
		"address": "56 Taylor Road, Sanbornton, NH 03269",
		"phone": "603-253-7968",
		"url": "http://hermitwoods.com/",
		"rating": "0.000000",
		"twitter": "http://twitter.com/#!/hermitwoods",
		"facebook": "http://www.facebook.com/pages/Holderness-General-Store/172875211782?sk=wall#!/pages/Holderness-General-Store/172875211782?sk=info",
		"gplace_url": "http://maps.google.com/maps/place?cid=4312253242600505865&q=Hermit+Woods+NH&ved=0CDgQ-gswAA&sa=X&ei=yAUDT9jYC4Xk_Aa5naCpCQ",
		"lat": "43.5439060",
		"lon": "-71.5775480"
	},
	{
		"name": "Jewell Towne",
		"address": "65 Jewell St, South Hampton, NH 03827",
		"phone": "603-394-0600",
		"url": "http://jewelltownevineyards.com/",
		"rating": "4.600000",
		"twitter": "",
		"facebook": "",
		"gplace_url": "http://maps.google.com/maps/place?cid=3086926303794943924&q=Jewell+Towne+NH&ved=0CB4Q-gswAA&sa=X&ei=yAUDT-b7C5fe_AbQrdHoBA",
		"lat": "42.8732254",
		"lon": "-70.9598547"
	},
	{
		"name": "LaBelle Winery",
		"address": "212 New Hampshire 101, Amherst, NH 03031",
		"phone": "603-672-0500",
		"url": "http://theblackforestcafe.com/",
		"rating": "4.700000",
		"twitter": "https://twitter.com/blackforestcafe",
		"facebook": "http://www.facebook.com/pages/Amherst-NH/The-Black-Forest-Cafe-and-Bakery/129242142119?ref=nf",
		"gplace_url": "http://maps.google.com/maps/place?cid=12932673163605986750&q=LaBelle+Winery+NH&ved=0CDkQ-gswAA&sa=X&ei=yAUDT_b_C5SX_QaQr4n-CA",
		"lat": "42.8741435",
		"lon": "-71.6129280"
	},
	{
		"name": "Moonlight Meadery",
		"address": "23 Londonderry Road #17, Londonderry, NH 03053",
		"phone": "603-216-2162",
		"url": "http://moonlightmeadery.com/",
		"rating": "0.000000",
		"twitter": "",
		"facebook": "",
		"gplace_url": "http://maps.google.com/maps/place?cid=9040453270514711558&q=Moonlight+Meadery+NH&ved=0CBQQ-gswAA&sa=X&ei=yAUDT9ChLYjCswaC77znDA",
		"lat": "",
		"lon": ""
	},
	{
		"name": "Olde Nuttfield Vineyards",
		"address": "Chester, NH 03036",
		"phone": "603-300-3870",
		"url": "",
		"rating": "0.000000",
		"twitter": "",
		"facebook": "",
		"gplace_url": "http://maps.google.com/maps/place?cid=9357222425163438534&q=Olde+Nuttfield+Vineyards+NH&ved=0CA0Q-gswAA&sa=X&ei=yAUDT4jIDoad_Aa3ieCXBA",
		"lat": "42.9567525",
		"lon": "-71.2572846"
	},
	{
		"name": "Piscassic Pond Winery",
		"address": "204 South Rd, Kensington, NH 03833-6701",
		"phone": "603-347-1738",
		"url": "http://sweetbabyvineyard.com/",
		"rating": "0.000000",
		"twitter": "",
		"facebook": "",
		"gplace_url": "http://maps.google.com/maps/place?cid=8800001455599107298&q=Piscassic+Pond+Winery+NH&ved=0CEAQ-gswAA&sa=X&ei=yAUDT8yCEJG6_Abn4-mxDA",
		"lat": "42.9085737",
		"lon": "-70.9492805"
	},
	{
		"name": "Silver Mountain Ciders",
		"address": "114 Barnett Hill Road, Walpole, NH 03608",
		"phone": "603-756-3948",
		"url": "http://bhvineyard.com/",
		"rating": "4.428000",
		"twitter": "",
		"facebook": "http://www.facebook.com/pages/Walpole-Mountain-View-Winery-at-Barnett-Hill-Vineyard/142855282405964",
		"gplace_url": "http://maps.google.com/maps/place?cid=11498525856776523640&q=Silver+Mountain+Ciders+NH&ved=0CB0Q-gswAA&sa=X&ei=yAUDT6SlGqfS4QT_5dGrDg",
		"lat": "43.0712853",
		"lon": "-72.3702233"
	},
	{
		"name": "Stone Gate Vineyard",
		"address": "27 David Lewis Road, Gilford, NH 03249-6527",
		"phone": "603-524-4348",
		"url": "http://stonegatevineyard.com/",
		"rating": "0.000000",
		"twitter": "",
		"facebook": "",
		"gplace_url": "http://maps.google.com/maps/place?cid=15969075485576909530&q=Stone+Gate+Vineyard+NH&ved=0CBEQ-gswAA&sa=X&ei=ygUDT4SILc7J_AblwOSlCA",
		"lat": "43.5523230",
		"lon": "-71.4397520"
	},
	{
		"name": "Sweet Baby Vineyard",
		"address": "204 South Rd, Kensington, NH 03833-6701",
		"phone": "603-347-1738",
		"url": "http://sweetbabyvineyard.com/",
		"rating": "0.000000",
		"twitter": "",
		"facebook": "",
		"gplace_url": "http://maps.google.com/maps/place?cid=8800001455599107298&q=Sweet+Baby+Vineyard+NH&ved=0CBIQ-gswAA&sa=X&ei=yQUDT8D1G8W6_Aas0ZnvCQ",
		"lat": "42.9085737",
		"lon": "-70.9492805"
	},
	{
		"name": "Vintner's Cellar of Bedford",
		"address": "133 Loudon Road, Concord, NH 03301",
		"phone": "603-224-9463",
		"url": "http://vcwinenh.com/",
		"rating": "0.000000",
		"twitter": "",
		"facebook": "http://www.facebook.com/VCwineNH",
		"gplace_url": "http://maps.google.com/maps/place?cid=10845315484416999950&q=Vintner's+Cellar+of+Bedford+NH&ved=0CFkQ-gswAA&sa=X&ei=yQUDT5iLMYSL_AaOk9WECg",
		"lat": "43.2148799",
		"lon": "-71.5102423"
	},
	{
		"name": "Walpole Mountain View Winery",
		"address": "114 Barnett Hill Road, Walpole, NH 03608",
		"phone": "603-756-3948",
		"url": "http://bhvineyard.com/",
		"rating": "4.428000",
		"twitter": "",
		"facebook": "http://www.facebook.com/pages/Walpole-Mountain-View-Winery-at-Barnett-Hill-Vineyard/142855282405964",
		"gplace_url": "http://maps.google.com/maps/place?cid=11498525856776523640&q=Walpole+Mountain+View+Winery+NH&ved=0CBQQ-gswAA&sa=X&ei=yQUDT_HCMs-s_AaVveGVCA",
		"lat": "43.0712853",
		"lon": "-72.3702233"
	},
	{
		"name": "Walpole Mountain View Winery",
		"address": "114 Barnett Hill Road, Walpole, NH 03608",
		"phone": "603-756-3948",
		"url": "http://bhvineyard.com/",
		"rating": "4.428000",
		"twitter": "",
		"facebook": "http://www.facebook.com/pages/Walpole-Mountain-View-Winery-at-Barnett-Hill-Vineyard/142855282405964",
		"gplace_url": "http://maps.google.com/maps/place?cid=11498525856776523640&q=Walpole+Mountain+View+Winery+NH&ved=0CBQQ-gswAA&sa=X&ei=yQUDT_KxOpjv_Aba-NjsCQ",
		"lat": "43.0712853",
		"lon": "-72.3702233"
	},
	{
		"name": "Zorvino Vineyards",
		"address": "226 Main Street, Sandown, NH 03873-2636",
		"phone": "603-887-8463",
		"url": "http://zorvino.com/",
		"rating": "4.000000",
		"twitter": "",
		"facebook": "",
		"gplace_url": "http://maps.google.com/maps/place?cid=5798076845443656078&q=Zorvino+Vineyards+NH&ved=0CBQQ-gswAA&sa=X&ei=ygUDT6boDubT4QT58sQY",
		"lat": "42.9215220",
		"lon": "-71.1741072"
	}
]
