[
	{
		"name": "Boyden Valley Winery",
		"address": "64 Vermont 104, Cambridge, VT 05444",
		"phone": "802-644-8151",
		"url": "http://boydenvalley.com/",
		"rating": "0.000000",
		"twitter": "http://twitter.com/BWinery",
		"facebook": "http://www.facebook.com/pages/Cambridge-VT/Boyden-Valley-Winery/114719587752?ref=ts ",
		"gplace_url": "http://maps.google.com/maps/place?cid=13879612589525640629&q=Boyden+Valley+Winery+VT&ved=0CBQQ-gswAA&sa=X&ei=QAUDT9CHOZLO4QTCnZ3-CA",
		"lat": "44.6483480",
		"lon": "-72.8892040"
	},
	{
		"name": "Caledonia Spirits & Winery",
		"address": "46 Buffalo Mountain Rd, Hardwick, VT 05843",
		"phone": "802-472-8000",
		"url": "http://caledoniaspirits.com/",
		"rating": "0.000000",
		"twitter": "",
		"facebook": "",
		"gplace_url": "http://maps.google.com/maps/place?cid=11230467453297244550&q=Caledonia+Spirits+&ved=0CBAQ-gswAA&sa=X&ei=QAUDT-a-OJfG_Abuv-jPDg",
		"lat": "44.4949205",
		"lon": "-72.3747446"
	},
	{
		"name": "Charlotte Village Winery",
		"address": "3968 Greenbush Road, Charlotte, VT 05445-9306",
		"phone": "802-425-4599",
		"url": "http://charlottevillagewinery.com/",
		"rating": "0.000000",
		"twitter": "",
		"facebook": "",
		"gplace_url": "http://maps.google.com/maps/place?cid=16756213433227147001&q=Charlotte+Village+Winery+VT&ved=0CBIQ-gswAA&sa=X&ei=QAUDT6LSPJmy_Qbnw-mTCQ",
		"lat": "44.2944720",
		"lon": "-73.2582089"
	},
	{
		"name": "Eden Ice Cider Company",
		"address": "466 Route 114 , West Burke, VT 05871, 05832",
		"phone": "802-626-8511",
		"url": "",
		"rating": "0.000000",
		"twitter": "",
		"facebook": "",
		"gplace_url": "http://maps.google.com/maps/place?cid=13390099259294993631&q=Eden+Ice+Cider+Company+VT&ved=0CGEQ-gswAA&sa=X&ei=QAUDT8y9OMTT_Aay_djuDA",
		"lat": "44.6749490",
		"lon": "-71.8815152"
	},
	{
		"name": "Fresh Tracks Farm Vineyard & Winery",
		"address": "4373 Vt Route 12, Montpelier, VT 05602-9679",
		"phone": "802-223-1151",
		"url": "http://freshtracksfarm.com/",
		"rating": "0.000000",
		"twitter": "",
		"facebook": "",
		"gplace_url": "http://maps.google.com/maps/place?cid=10207883754090465929&q=Fresh+Tracks+Farm+Vineyard+&ved=0CBMQ-gswAA&sa=X&ei=QgUDT-e7FIqu_AaK87GICg",
		"lat": "44.228203044.2269430",
		"lon": "-72.6181790-72.6197271"
	},
	{
		"name": "Grand View Winery",
		"address": "2113 Max Gray Road, Plainfield, VT 05667-9473",
		"phone": "802-456-7012",
		"url": "http://grandviewwinery.com/",
		"rating": "0.000000",
		"twitter": "",
		"facebook": "",
		"gplace_url": "http://maps.google.com/maps/place?cid=2114041369004545781&q=Grand+View+Winery+VT&ved=0CBcQ-gswAA&sa=X&ei=QgUDT5n4Foyc_Aal-OS2Ag",
		"lat": "44.2410276",
		"lon": "-72.3989503"
	},
	{
		"name": "Honora Winery",
		"address": "1950 Collins Road, West Halifax, VT 05358",
		"phone": "802-368-2930",
		"url": "http://honorawinery.com/",
		"rating": "0.000000",
		"twitter": "",
		"facebook": "http://www.facebook.com/pages/Jacksonville-VT/Honora-Winery-Vineyard/437504470461?ref=ts&__a=9",
		"gplace_url": "http://maps.google.com/maps/place?cid=14275003688548610904&q=Honora+Winery+VT&ved=0CCAQ-gswAA&sa=X&ei=QgUDT72rIJGS_Abe_8GXCg",
		"lat": "42.8102530",
		"lon": "-72.7929690"
	},
	{
		"name": "Huntington River Vineyard",
		"address": "5781 Mountain Rd, Stowe, VT 05672-4803",
		"phone": "802-253-3000",
		"url": "http://stowe.com/",
		"rating": "2.923000",
		"twitter": "http://twitter.com/stowemtresort/",
		"facebook": "https://www.facebook.com/stowemountainresort",
		"gplace_url": "http://maps.google.com/maps/place?cid=11744190593268284221&q=Huntington+River+Vineyard+VT&ved=0CGsQ-gswAA&sa=X&ei=QgUDT7vUIsSD4gT4oeAI",
		"lat": "44.5311864",
		"lon": "-72.7885504"
	},
	{
		"name": "Lincoln Peak Vineyard",
		"address": "142 River Road, New Haven, VT 05472",
		"phone": "802-388-7368",
		"url": "http://lincolnpeakvineyard.com/",
		"rating": "0.000000",
		"twitter": "",
		"facebook": "http://www.facebook.com/photos.php?id=93905518771",
		"gplace_url": "http://maps.google.com/maps/place?cid=6122309519337738498&q=Lincoln+Peak+Vineyard+VT&ved=0CBMQ-gswAA&sa=X&ei=QgUDT4CtIsWFswaUsLzBCw",
		"lat": "44.0558590",
		"lon": "-73.1647110"
	},
	{
		"name": "Neshobe River Winery",
		"address": "79 Stone Mill Dam Road, Brandon, VT 05733-8945",
		"phone": "802-247-8002",
		"url": "http://neshoberiverwinery.com/",
		"rating": "0.000000",
		"twitter": "",
		"facebook": "",
		"gplace_url": "http://maps.google.com/maps/place?cid=4807598857032500344&q=Neshobe+River+Winery+VT&ved=0CBQQ-gswAA&sa=X&ei=QgUDT_WTItDM_Abvy7yMCg",
		"lat": "43.8116259",
		"lon": "-73.0765230"
	},
	{
		"name": "North River Winery",
		"address": "201 Vermont 112, Jacksonville, VT 05342",
		"phone": "802-368-7557",
		"url": "http://northriverwinery.com/",
		"rating": "0.000000",
		"twitter": "",
		"facebook": "",
		"gplace_url": "http://maps.google.com/maps/place?cid=5792508205935475921&q=North+River+Winery+VT&ved=0CBUQ-gswAA&sa=X&ei=QgUDT9KZJtHN4QTX0-AQ",
		"lat": "",
		"lon": ""
	},
	{
		"name": "Ottaauquechee Valley Winery",
		"address": "6308 Shelburne Road, Shelburne, VT 05482",
		"phone": "802-985-8222",
		"url": "http://shelburnevineyard.com/",
		"rating": "0.000000",
		"twitter": "http://twitter.com/ShelburneVinyrd",
		"facebook": "http://www.facebook.com/pages/Shelburne-VT/Shelburne-Vineyard/101626715952",
		"gplace_url": "http://maps.google.com/maps/place?cid=11265458589319917339&q=Ottaauquechee+Valley+Winery+VT&ved=0CBoQ-gswAA&sa=X&ei=QgUDT432IYyf_QapibDUCA",
		"lat": "",
		"lon": ""
	},
	{
		"name": "Otter Valley Winery",
		"address": "1246 Franklin Street (Route 7), Brandon, VT 05733",
		"phone": "802-247-6644",
		"url": "http://ottervalleywinery.com/",
		"rating": "0.000000",
		"twitter": "",
		"facebook": "",
		"gplace_url": "http://maps.google.com/maps/place?cid=16129852998477721302&q=Otter+Valley+Winery+VT&ved=0CBsQ-gswAA&sa=X&ei=QwUDT9fMKtPQ4QSiwv0N",
		"lat": "43.0338824",
		"lon": "-73.1374245"
	},
	{
		"name": "Putney Mountain Winery",
		"address": "8 Bellows Falls Road, Putney, VT 05346-8681",
		"phone": "802-387-5925",
		"url": "http://putneywine.com/",
		"rating": "0.000000",
		"twitter": "",
		"facebook": "",
		"gplace_url": "http://maps.google.com/maps/place?cid=12816121925413835729&q=Putney+Mountain+Winery+VT&ved=0CBoQ-gswAA&sa=X&ei=QgUDT7fRJs_y_AbqkYW5Bg",
		"lat": "42.9763180",
		"lon": "-72.5204930"
	},
	{
		"name": "Shelburne Vineyard",
		"address": "6308 Shelburne Road, Shelburne, VT 05482",
		"phone": "802-985-8222",
		"url": "http://shelburnevineyard.com/",
		"rating": "0.000000",
		"twitter": "http://twitter.com/ShelburneVinyrd",
		"facebook": "http://www.facebook.com/pages/Shelburne-VT/Shelburne-Vineyard/101626715952",
		"gplace_url": "http://maps.google.com/maps/place?cid=11265458589319917339&q=Shelburne+Vineyard+VT&ved=0CBEQ-gswAA&sa=X&ei=QgUDT-fJKYqu_AaK87GICg",
		"lat": "44.3663160",
		"lon": "-73.2338480"
	},
	{
		"name": "Snow Farm Winery",
		"address": "190 West Shore Road, South Hero, VT 05486-4617",
		"phone": "802-372-9463",
		"url": "http://snowfarm.com/",
		"rating": "0.000000",
		"twitter": "",
		"facebook": "",
		"gplace_url": "http://maps.google.com/maps/place?cid=11808054924960200918&q=Snow+Farm+Winery+VT&ved=0CBcQ-gswAA&sa=X&ei=QwUDT8DLKZqP_QbnrKntCQ",
		"lat": "44.6268010",
		"lon": "-73.3330230"
	},
	{
		"name": "Whaleback Vineyard",
		"address": "202 Old Lake Road, Poultney, VT 05764",
		"phone": "802-287-2256(802) 287-0730(855) 630-9767",
		"url": "http://whalebackvineyard.com/",
		"rating": "0.000000",
		"twitter": "",
		"facebook": "",
		"gplace_url": "http://maps.google.com/maps/place?cid=8422240520633432790&q=Whaleback+Vineyard+VT&ved=0CDcQ-gswAA&sa=X&ei=RAUDT8-ACZO9_Qafj_mrBQ",
		"lat": "43.5015829",
		"lon": "-73.2082980"
	}
]
